[
{
    "id": 144,
    "kind": "legendary",
    "gym": {
        "name": "Itineraris Naturals",
        "location": {
            "latitude": 41.983422,
            "longitude": 2.808964
        }
    }
},
{
    "id": 145,
    "kind": "legendary",
    "gym": {
        "name": "Riberes del Baix Ter",
        "location": {
            "latitude": 41.981038,
            "longitude": 2.79813
        }
    }
},
{
    "id": 146,
    "kind": "legendary",
    "gym": {
        "name": "Esglèsia de Sant Miquel Sacosta",
        "location": {
            "latitude": 41.956924,
            "longitude": 2.822001
        }
    }
},
{
    "id": 150,
    "kind": "legendary",
    "gym": {
        "name": "La Salle - Universitat Ramón Llull",
        "location": {
            "latitude": 41.409041,
            "longitude": 2.130160
        }
    }
},
{
    "id": 151,
    "kind": "mythical",
    "special_research": {
        "name": "A Mythical Discovery",
        "quests": [
        {
            "target": 132,
            "quantity": 1
        },
        {
            "target": 1,
            "quantity": 5
        },
        {
            "target": 4,
            "quantity": 5
        },
        {
            "target": 7,
            "quantity": 5
        },
        {
            "target": 133,
            "quantity": 1
        }
        ]
    }
},
{
    "id": 243,
    "kind": "legendary",
    "gym": {
        "name": "Seta Habladora",
        "location": {
            "latitude": 41.403072,
            "longitude": 2.181362
        }
    }
},
{
    "id": 244,
    "kind": "legendary",
    "gym": {
        "name": "La Remunta",
        "location": {
            "latitude": 41.359010,
            "longitude": 2.095004
        }
    }
},
{
    "id": 245,
    "kind": "legendary",
    "gym": {
        "name": "Font Plaça del Sol",
        "location": {
            "latitude": 41.371058,
            "longitude": 2.090088
        }
    }
},
{
    "id": 249,
    "kind": "legendary",
    "gym": {
        "name": "Parc Alcarras",
        "location": {
            "latitude": 41.565846,
            "longitude": 0.527987
        }
    }
},
{
    "id": 250,
    "kind": "legendary",
    "gym": {
        "name": "Font de Pedra",
        "location": {
            "latitude": 41.601883,
            "longitude": 0.641578
        }
    }
},
{
    "id": 251,
    "kind": "mythical",
    "special_research": {
        "name": "A Ripple in Time",
        "quests": [
        {
            "target": 182,
            "quantity": 3
        },
        {
            "target": 187,
            "quantity": 3
        },
        {
            "target": 188,
            "quantity": 3
        },
        {
            "target": 189,
            "quantity": 3
        },
        {
            "target": 191,
            "quantity": 3
        },
        {
            "target": 192,
            "quantity": 3
        },
        {
            "target": 201,
            "quantity": 8
        }
        ]
    }
},
{
    "id": 377,
    "kind": "legendary",
    "gym": {
        "name": "Underwood Community Center",
        "location": {
            "latitude": 51.600746,
            "longitude": -2.889482
        }
    }
},
{
    "id": 378,
    "kind": "legendary",
    "gym": {
        "name": "Coal Miner",
        "location": {
            "latitude": 51.480033,
            "longitude": -3.169911
        }
    }
},
{
    "id": 379,
    "kind": "legendary",
    "gym": {
        "name": "The Bear Plaque",
        "location": {
            "latitude": 51.369777,
            "longitude": -2.140177
        }
    }
},
{
    "id": 380,
    "kind": "legendary",
    "gym": {
        "name": "Iron Cattle",
        "location": {
            "latitude": 52.679946,
            "longitude": -1.099857
        }
    }
},
{
    "id": 381,
    "kind": "legendary",
    "gym": {
        "name": "Tree Face",
        "location": {
            "latitude": 52.639984,
            "longitude": -1.150013
        }
    }
},
{
    "id": 382,
    "kind": "legendary",
    "gym": {
        "name": "The Ashy Playpark",
        "location": {
            "latitude": 56.589865,
            "longitude": -3.340013
        }
    }
},
{
    "id": 383,
    "kind": "legendary",
    "gym": {
        "name": "Kinrossie Village Hall",
        "location": {
            "latitude": 56.479859,
            "longitude": -3.320973
        }
    }
},
{
    "id": 384,
    "kind": "legendary",
    "gym": {
        "name": "Factory Skatepark",
        "location": {
            "latitude": 56.480796,
            "longitude": -2.919496
        }
    }
},
{
    "id": 385,
    "kind": "mythical",
    "special_research": {
        "name": "A Wish for the Stars",
        "quests": [
        {
            "target": 120,
            "quantity": 5
        },
        {
            "target": 280,
            "quantity": 10
        },
        {
            "target": 358,
            "quantity": 3
        }
        ]
    }
},
{
    "id": 386,
    "kind": "mythical",
    "special_research": {
        "name": "Meteor Destiny",
        "quests": [
        {
            "target": 337,
            "quantity": 10
        },
        {
            "target": 338,
            "quantity": 10
        },
        {
            "target": 351,
            "quantity": 10
        }
        ]
    }
},
{
    "id": 480,
    "kind": "legendary",
    "gym": {
        "name": "Benzinger Park",
        "location": {
            "latitude": 41.399940,
            "longitude": -78.499933
        }
    }
},
{
    "id": 481,
    "kind": "legendary",
    "gym": {
        "name": "Firefighters Historical Museum",
        "location": {
            "latitude": 42.099300,
            "longitude": -80.098653
        }
    }
},
{
    "id": 482,
    "kind": "legendary",
    "gym": {
        "name": "Alan Freed",
        "location": {
            "latitude": 40.199777,
            "longitude": -78.800247
        }
    }
},
{
    "id": 483,
    "kind": "legendary",
    "gym": {
        "name": "Memorial Plaza",
        "location": {
            "latitude": 38.200044,
            "longitude": -90.400156
        }
    }
},
{
    "id": 484,
    "kind": "legendary",
    "gym": {
        "name": "Lest We Forget",
        "location": {
            "latitude": 37.799976,
            "longitude": -89.699901
        }
    }
},
{
    "id": 485,
    "kind": "legendary",
    "gym": {
        "name": "Mina Sauk Falls Trail",
        "location": {
            "latitude": 37.599974,
            "longitude": -90.700035
        }
    }
},
{
    "id": 486,
    "kind": "legendary",
    "gym": {
        "name": "Crane Public Library",
        "location": {
            "latitude": 36.899973,
            "longitude": -93.599955
        }
    }
},
{
    "id": 487,
    "kind": "legendary",
    "gym": {
        "name": "River Park West",
        "location": {
            "latitude": 30.300068,
            "longitude": -93.200075
        }
    }
},
{
    "id": 488,
    "kind": "legendary",
    "gym": {
        "name": "Tyler County Courthouse",
        "location": {
            "latitude": 30.799708,
            "longitude": -94.399946
        }
    }
},
{
    "id": 489,
    "kind": "mythical",
    "special_research": {
        "name": "A Floating Drop",
        "quests": [
        {
            "target": 418,
            "quantity": 1
        },
        {
            "target": 422,
            "quantity": 1
        },
        {
            "target": 456,
            "quantity": 1
        },
        {
            "target": 458,
            "quantity": 1
        },
        {
            "target": 490,
            "quantity": 1
        }
        ]
    }
},
{
    "id": 490,
    "kind": "mythical",
    "special_research": {
        "name": "Ocean Exploration Duty",
        "quests": [
        {
            "target": 419,
            "quantity": 3
        },
        {
            "target": 423,
            "quantity": 2
        },
        {
            "target": 457,
            "quantity": 2
        }
        ]
    }
},
{
    "id": 491,
    "kind": "mythical",
    "special_research": {
        "name": "A Deep Nightmare",
        "quests": [
        {
            "target": 425,
            "quantity": 3
        },
        {
            "target": 426,
            "quantity": 2
        },
        {
            "target": 429,
            "quantity": 2
        },
        {
            "target": 430,
            "quantity": 2
        },
        {
            "target": 442,
            "quantity": 3
        }
        ]
    }
},
{
    "id": 492,
    "kind": "mythical",
    "special_research": {
        "name": "A Green Path",
        "quests": [
        {
            "target": 406,
            "quantity": 4
        },
        {
            "target": 415,
            "quantity": 3
        },
        {
            "target": 420,
            "quantity": 3
        },
        {
            "target": 421,
            "quantity": 2
        }
        ]
    }
},
{
    "id": 493,
    "kind": "mythical",
    "special_research": {
        "name": "Meeting the Lord",
        "quests": [
        {
            "target": 399,
            "quantity": 1
        },
        {
            "target": 483,
            "quantity": 1
        },
        {
            "target": 484,
            "quantity": 1
        },
        {
            "target": 487,
            "quantity": 1
        }
        ]
    }
},
{
    "id": 494,
    "kind": "mythical",
    "special_research": {
        "name": "V for Victory",
        "quests": [
        {
            "target": 495,
            "quantity": 2
        },
        {
            "target": 498,
            "quantity": 2
        },
        {
            "target": 501,
            "quantity": 2
        },
        {
            "target": 511,
            "quantity": 2
        },
        {
            "target": 513,
            "quantity": 2
        },
        {
            "target": 515,
            "quantity": 2
        }
        ]
    }
},
{
    "id": 638,
    "kind": "legendary",
    "gym": {
        "name": "Fountain at Pro Source",
        "location": {
            "latitude": 49.899958,
            "longitude": -119.499994
        }
    }
},
{
    "id": 639,
    "kind": "legendary",
    "gym": {
        "name": "Safety Follows Wisdom",
        "location": {
            "latitude": 48.502305,
            "longitude": -121.798439
        }
    }
},
{
    "id": 640,
    "kind": "legendary",
    "gym": {
        "name": "Joseph Whidbey State Park",
        "location": {
            "latitude": 48.300377,
            "longitude": -122.699640
        }
    }
},
{
    "id": 641,
    "kind": "legendary",
    "gym": {
        "name": "Blue Bull",
        "location": {
            "latitude": 47.199976,
            "longitude": -122.000044
        }
    }
},
{
    "id": 642,
    "kind": "legendary",
    "gym": {
        "name": "Molalia Train Park",
        "location": {
            "latitude": 45.100296,
            "longitude": -122.499652
        }
    }
},
{
    "id": 643,
    "kind": "legendary",
    "gym": {
        "name": "Cow Creek Tribe History",
        "location": {
            "latitude": 42.799626,
            "longitude": -123.400836
        }
    }
},
{
    "id": 644,
    "kind": "legendary",
    "gym": {
        "name": "Tradewinds Bison",
        "location": {
            "latitude": 35.199898,
            "longitude": -114.300039
        }
    }
},
{
    "id": 645,
    "kind": "legendary",
    "gym": {
        "name": "Daydreams Sculpture",
        "location": {
            "latitude": 38.399526,
            "longitude": -98.800144
        }
    }
},
{
    "id": 646,
    "kind": "legendary",
    "gym": {
        "name": "Tanner Plaza",
        "location": {
            "latitude": 40.795287,
            "longitude": -111.800458
        }
    }
},
{
    "id": 647,
    "kind": "mythical",
    "special_research": {
        "name": "A Secret Sword",
        "quests": [
        {
            "target": 610,
            "quantity": 5
        },
        {
            "target": 611,
            "quantity": 3
        },
        {
            "target": 612,
            "quantity": 2
        },
        {
            "target": 624,
            "quantity": 3
        },
        {
            "target": 625,
            "quantity": 2
        }
        ]
    }
},
{
    "id": 648,
    "kind": "mythical",
    "special_research": {
        "name": "A Tale of Two Songs",
        "quests": [
        {
            "target": 615,
            "quantity": 7
        },
        {
            "target": 621,
            "quantity": 7
        }
        ]
    }
},
{
    "id": 649,
    "kind": "mythical",
    "special_research": {
        "name": "Rogue Experiment",
        "quests": [
        {
            "target": 599,
            "quantity": 8
        },
        {
            "target": 600,
            "quantity": 4
        },
        {
            "target": 601,
            "quantity": 2
        }
        ]
    }
},
{
    "id": 716,
    "kind": "legendary",
    "gym": {
        "name": "Aboriginal Statue",
        "location": {
            "latitude": -22.600006,
            "longitude": 133.299998
        }
    }
},
{
    "id": 717,
    "kind": "legendary",
    "gym": {
        "name": "Cervantes Sign South",
        "location": {
            "latitude": -30.500501,
            "longitude": 115.098434
        }
    }
},
{
    "id": 718,
    "kind": "legendary",
    "gym": {
        "name": "Kondinin Exercise",
        "location": {
            "latitude": -32.500356,
            "longitude": 118.300163
        }
    }
},
{
    "id": 719,
    "kind": "mythical",
    "special_research": {
        "name": "Gem Galore",
        "quests": [
        {
            "target": 703,
            "quantity": 42
        }
        ]
    }
},
{
    "id": 720,
    "kind": "mythical",
    "special_research": {
        "name": "Through the Loop",
        "quests": [
        {
            "target": 679,
            "quantity": 7
        },
        {
            "target": 680,
            "quantity": 6
        },
        {
            "target": 681,
            "quantity": 5
        },
        {
            "target": 707,
            "quantity": 4
        }
        ]
    }
},
{
    "id": 721,
    "kind": "mythical",
    "special_research": {
        "name": "A Wave of Vapor",
        "quests": [
        {
            "target": 667,
            "quantity": 3
        },
        {
            "target": 668,
            "quantity": 3
        },
        {
            "target": 692,
            "quantity": 3
        },
        {
            "target": 693,
            "quantity": 3
        }
        ]
    }
},
{
    "id": 772,
    "kind": "legendary",
    "gym": {
        "name": "Stanley Park Memorial",
        "location": {
            "latitude": -33.000082,
            "longitude": 135.499895
        }
    }
},
{
    "id": 773,
    "kind": "legendary",
    "gym": {
        "name": "Wal Mitchell Warf Precinct",
        "location": {
            "latitude": -30.097614,
            "longitude": 145.898434
        }
    }
},
{
    "id": 785,
    "kind": "legendary",
    "gym": {
        "name": "Proserpine Historical Museum",
        "location": {
            "latitude": -20.399525,
            "longitude": 148.600947
        }
    }
},
{
    "id": 786,
    "kind": "legendary",
    "gym": {
        "name": "Lake Apex",
        "location": {
            "latitude": -27.603139,
            "longitude": 152.300597
        }
    }
},
{
    "id": 787,
    "kind": "legendary",
    "gym": {
        "name": "Coastal Wildlife",
        "location": {
            "latitude": -41.900311,
            "longitude": 148.300134
        }
    }
},
{
    "id": 788,
    "kind": "legendary",
    "gym": {
        "name": "Anzac Bridge",
        "location": {
            "latitude": -36.700226,
            "longitude": 142.199999
        }
    }
},
{
    "id": 789,
    "kind": "legendary",
    "gym": {
        "name": "Dodd Court Park Playground",
        "location": {
            "latitude": -20.700801,
            "longitude": 116.800270
        }
    }
},
{
    "id": 790,
    "kind": "legendary",
    "gym": {
        "name": "Park Stadium",
        "location": {
            "latitude": 17.602099,
            "longitude": 121.700312
        }
    }
},
{
    "id": 791,
    "kind": "legendary",
    "gym": {
        "name": "Western Philippines University",
        "location": {
            "latitude": 9.443893,
            "longitude": 118.555697
        }
    }
},
{
    "id": 792,
    "kind": "legendary",
    "gym": {
        "name": "Sweet Factory",
        "location": {
            "latitude": 2.299753,
            "longitude": 111.799964
        }
    }
},
{
    "id": 800,
    "kind": "legendary",
    "gym": {
        "name": "The Ruby Arena Hotel",
        "location": {
            "latitude": 8.499806,
            "longitude": 76.8998609
        }
    }
},
{
    "id": 801,
    "kind": "mythical",
    "special_research": {
        "name": "A Broken Toy",
        "quests": [
        {
            "target": 734,
            "quantity": 10
        },
        {
            "target": 735,
            "quantity": 5
        },
        {
            "target": 771,
            "quantity": 5
        }
        ]
    }
},
{
    "id": 802,
    "kind": "mythical",
    "special_research": {
        "name": "A Lurking Shadow",
        "quests": [
        {
            "target": 769,
            "quantity": 9
        },
        {
            "target": 770,
            "quantity": 2
        },
        {
            "target": 778,
            "quantity": 7
        },
        {
            "target": 781,
            "quantity": 3
        }
        ]
    }
}
]
